{"type":"FeatureCollection","features":[{"type":"Feature","geometry":{"type":"Point","coordinates":[-122.39411196,37.79142819]},"properties":{"name":"135 Main St","address":"135 Main St","category":"Indoor Park","access":"business","entry":"Indirect","signage":"Poor","hours":"Unknown. Security would not disclose hours.","year":1982,"indoor":true,"has_art":true,"has_food":false,"has_restroom":false,"has_seating":true,"hidden":100,"hidden_rank":1,"status":null}},{"type":"Feature","geometry":{"type":"Point","coordinates":[-122.400283,37.789]},"properties":{"name":"55 Second St - C","address":"55 Second St","category":"Atrium","access":"business","entry":"Unknown","signage":"Some","hours":"8AM - 6PM, M-F","year":2002,"indoor":true,"has_art":true,"has_food":false,"has_restroom":true,"has_seating":true,"hidden":60,"hidden_rank":22,"status":null}},{"type":"Feature","geometry":{"type":"Point","coordinates":[-122.39656,37.79052]},"properties":{"name":"Millenium Tower Plaza","address":"301 Mission St","category":"Atrium","access":"business","entry":"Indirect","signage":"Good","hours":"8AM - 6PM, M-F","year":2005,"indoor":true,"has_art":true,"has_food":true,"has_restroom":true,"has_seating":true,"hidden":70,"hidden_rank":9,"status":null}},{"type":"Feature","geometry":{"type":"Point","coordinates":[-122.39851021,37.79111153]},"properties":{"name":"425 Market St","address":"425 Market St","category":"Urban Garden","access":"always","entry":"Direct","signage":"Poor","hours":"Open at all times","year":1973,"indoor":false,"has_art":false,"has_food":true,"has_restroom":false,"has_seating":true,"hidden":30,"hidden_rank":51,"status":null}},{"type":"Feature","geometry":{"type":"Point","coordinates":[-122.41971,37.77613]},"properties":{"name":"77 Van Ness Ave","address":"77 Van Ness Ave","category":"Indoor Park","access":"business","entry":"Direct","signage":"Poor","hours":"8AM - 6PM, M-F","year":2002,"indoor":true,"has_art":true,"has_food":false,"has_restroom":true,"has_seating":true,"hidden":66,"hidden_rank":10,"status":null}},{"type":"Feature","geometry":{"type":"Point","coordinates":[-122.40046,37.79306]},"properties":{"name":"345 California St - A","address":"345 California St","category":"Plaza","access":"always","entry":"Direct","signage":"Poor","hours":"Open at all times","year":1986,"indoor":false,"has_art":false,"has_food":true,"has_restroom":false,"has_seating":true,"hidden":30,"hidden_rank":48,"status":null}},{"type":"Feature","geometry":{"type":"Point","coordinates":[-122.40005,37.79286]},"properties":{"name":"345 California St - East B","address":"345 California St","category":"Snippet","access":"always","entry":"Direct","signage":"Poor","hours":"Open at all times","year":1986,"indoor":false,"has_art":false,"has_food":true,"has_restroom":false,"has_seating":true,"hidden":30,"hidden_rank":49,"status":null}},{"type":"Feature","geometry":{"type":"Point","coordinates":[-122.40091,37.79263]},"properties":{"name":"345 California St - West C","address":"345 California St","category":"Snippet","access":"always","entry":"Direct","signage":"Poor","hours":"Open at all times","year":1986,"indoor":false,"has_art":false,"has_food":true,"has_restroom":false,"has_seating":true,"hidden":30,"hidden_rank":50,"status":null}},{"type":"Feature","geometry":{"type":"Point","coordinates":[-122.40125,37.79446]},"properties":{"name":"Embarcadero Center West 1, 2, & 3","address":"1-5 Embarcadero Center","category":"Pedestrian Walkway","access":"always","entry":"Mixed","signage":"Poor","hours":"Open at all times","year":1985,"indoor":false,"has_art":true,"has_food":true,"has_restroom":false,"has_seating":true,"hidden":64,"hidden_rank":18,"status":null}},{"type":"Feature","geometry":{"type":"Point","coordinates":[-122.394009,37.790744]},"properties":{"name":"250 Howard","address":"250 Howard","category":"Urban Park","access":"unknown","entry":"Unknown","signage":"Poor","hours":null,"year":null,"indoor":false,"has_art":null,"has_food":null,"has_restroom":null,"has_seating":false,"hidden":52,"hidden_rank":23,"status":"under_construction"}},{"type":"Feature","geometry":{"type":"Point","coordinates":[-122.39779067,37.79175429]},"properties":{"name":"333 Market St","address":"333 Market St","category":"Plaza","access":"always","entry":"Direct","signage":"Poor","hours":"Open at all times","year":1979,"indoor":false,"has_art":false,"has_food":true,"has_restroom":false,"has_seating":true,"hidden":30,"hidden_rank":47,"status":null}},{"type":"Feature","geometry":{"type":"Point","coordinates":[-122.39891,37.7884]},"properties":{"name":"555 Mission St","address":"555 Mission St","category":"Plaza","access":"always","entry":"Direct","signage":"Good","hours":"Open at all times","year":2008,"indoor":false,"has_art":true,"has_food":true,"has_restroom":true,"has_seating":true,"hidden":0,"hidden_rank":81,"status":null}},{"type":"Feature","geometry":{"type":"Point","coordinates":[-122.396,37.7888]},"properties":{"name":"Foundry Square NE","address":"400 Howard St","category":"Plaza","access":"always","entry":"Direct","signage":"Some","hours":"8AM - 6PM, M-F","year":2008,"indoor":false,"has_art":true,"has_food":true,"has_restroom":false,"has_seating":true,"hidden":12,"hidden_rank":79,"status":null}},{"type":"Feature","geometry":{"type":"Point","coordinates":[-122.39566,37.78852]},"properties":{"name":"Foundry Square SE","address":"405 Howard St","category":"Plaza","access":"business","entry":"Direct","signage":"Some","hours":"8AM - 6PM, M-F","year":2005,"indoor":false,"has_art":true,"has_food":true,"has_restroom":false,"has_seating":true,"hidden":30,"hidden_rank":67,"status":null}},{"type":"Feature","geometry":{"type":"Point","coordinates":[-122.39631,37.78854]},"properties":{"name":"Foundry Square NW","address":"500 Howard St","category":"Plaza","access":"always","entry":"Direct","signage":"Poor","hours":"Open at all times","year":2003,"indoor":false,"has_art":true,"has_food":true,"has_restroom":false,"has_seating":true,"hidden":30,"hidden_rank":66,"status":null}},{"type":"Feature","geometry":{"type":"Point","coordinates":[-122.39721,37.78618]},"properties":{"name":"235 Second St","address":"235 Second St","category":"Plaza","access":"business","entry":"Mixed","signage":"Some","hours":"8AM - 6PM, M-F","year":2002,"indoor":true,"has_art":true,"has_food":true,"has_restroom":false,"has_seating":true,"hidden":82,"hidden_rank":5,"status":null}},{"type":"Feature","geometry":{"type":"Point","coordinates":[-122.39908,37.78892]},"properties":{"name":"560 Mission St","address":"560 Mission St","category":"Plaza","access":"always","entry":"Direct","signage":"Good","hours":"Open at all times","year":2002,"indoor":true,"has_art":true,"has_food":true,"has_restroom":true,"has_seating":true,"hidden":18,"hidden_rank":75,"status":null}},{"type":"Feature","geometry":{"type":"Point","coordinates":[-122.39684,37.78577]},"properties":{"name":"Marriott Courtyard - A (Starbucks)","address":"299 2nd St","category":"Snippet","access":"always","entry":"Direct","signage":"Some","hours":"Open at all times","year":2001,"indoor":false,"has_art":false,"has_food":true,"has_restroom":true,"has_seating":true,"hidden":12,"hidden_rank":80,"status":null}},{"type":"Feature","geometry":{"type":"Point","coordinates":[-122.39668,37.78576]},"properties":{"name":"Marriott Courtyard - B (Starbucks)","address":"299 2nd St","category":"Snippet","access":"business","entry":"Direct","signage":"Some","hours":"8:00am - 5:00pm","year":2001,"indoor":false,"has_art":false,"has_food":true,"has_restroom":false,"has_seating":true,"hidden":30,"hidden_rank":72,"status":null}},{"type":"Feature","geometry":{"type":"Point","coordinates":[-122.39669,37.78611]},"properties":{"name":"Marriott Courtyard - C","address":"299 2nd St","category":"Atrium","access":"business","entry":"Indirect","signage":"Poor","hours":null,"year":2001,"indoor":true,"has_art":true,"has_food":true,"has_restroom":true,"has_seating":true,"hidden":100,"hidden_rank":2,"status":"disputed"}},{"type":"Feature","geometry":{"type":"Point","coordinates":[-122.39953,37.78803]},"properties":{"name":"101 2nd St","address":"101 2nd St","category":"Greenhouse","access":"business","entry":"Indirect","signage":"Some","hours":"8AM - 6PM, M-F","year":2000,"indoor":true,"has_art":true,"has_food":true,"has_restroom":true,"has_seating":true,"hidden":82,"hidden_rank":4,"status":null}},{"type":"Feature","geometry":{"type":"Point","coordinates":[-122.39491,37.78967]},"properties":{"name":"199 Fremont St","address":"199 Fremont St","category":"Urban Garden","access":"always","entry":"Direct","signage":"Some","hours":"Open at all times","year":2000,"indoor":false,"has_art":true,"has_food":true,"has_restroom":false,"has_seating":true,"hidden":12,"hidden_rank":76,"status":null}},{"type":"Feature","geometry":{"type":"Point","coordinates":[-122.40146,37.79374]},"properties":{"name":"343 Sansome","address":"343 Sansome St","category":"View Terrace","access":"business","entry":"Indirect","signage":"Some","hours":"10AM-5PM, M-F","year":1990,"indoor":false,"has_art":true,"has_food":true,"has_restroom":true,"has_seating":true,"hidden":64,"hidden_rank":15,"status":null}},{"type":"Feature","geometry":{"type":"Point","coordinates":[-122.39288583,37.7903972]},"properties":{"name":"211 Main St","address":"211 Main St","category":"Plaza","access":"always","entry":"Direct","signage":"Poor","hours":"Open at all times","year":1973,"indoor":false,"has_art":false,"has_food":false,"has_restroom":false,"has_seating":true,"hidden":30,"hidden_rank":45,"status":null}},{"type":"Feature","geometry":{"type":"Point","coordinates":[-122.40384,37.79428]},"properties":{"name":"Empire Park","address":"642 Commercial St","category":"Urban Park","access":"business","entry":"Direct","signage":"Some","hours":"Daylight Hours.","year":1988,"indoor":false,"has_art":false,"has_food":true,"has_restroom":false,"has_seating":true,"hidden":30,"hidden_rank":65,"status":null}},{"type":"Feature","geometry":{"type":"Point","coordinates":[-122.39797,37.79358]},"properties":{"name":"100 California St","address":"100 California St","category":"Plaza","access":"always","entry":"Direct","signage":"Poor","hours":"Open at all times","year":2013,"indoor":false,"has_art":false,"has_food":true,"has_restroom":false,"has_seating":true,"hidden":30,"hidden_rank":39,"status":null}},{"type":"Feature","geometry":{"type":"Point","coordinates":[-122.40228,37.79439]},"properties":{"name":"Commercial Street (235 Pine Entitlement)","address":"235 Pine St","category":"Snippet","access":"always","entry":"Direct","signage":"Poor","hours":"Open at all times","year":1984,"indoor":false,"has_art":false,"has_food":true,"has_restroom":false,"has_seating":true,"hidden":30,"hidden_rank":64,"status":null}},{"type":"Feature","geometry":{"type":"Point","coordinates":[-122.39305,37.79107]},"properties":{"name":"120 Howard St","address":"120 Howard St","category":"Urban Garden","access":"business","entry":"Direct","signage":"Poor","hours":"8AM - 6PM, M-F","year":null,"indoor":false,"has_art":false,"has_food":true,"has_restroom":false,"has_seating":true,"hidden":48,"hidden_rank":24,"status":null}},{"type":"Feature","geometry":{"type":"Point","coordinates":[-122.40376,37.78784]},"properties":{"name":"1 Kearny St","address":"1 Kearny St","category":"Sun Terrace","access":"business","entry":"Indirect","signage":"Some","hours":"10AM-5PM, M-F","year":2006,"indoor":false,"has_art":false,"has_food":false,"has_restroom":true,"has_seating":true,"hidden":64,"hidden_rank":12,"status":null}},{"type":"Feature","geometry":{"type":"Point","coordinates":[-122.400283,37.789]},"properties":{"name":"55 Second St - A","address":"55 Second St","category":"Indoor Park","access":"business","entry":"Unknown","signage":"Good","hours":"8AM - 6PM, M-F","year":2002,"indoor":true,"has_art":true,"has_food":false,"has_restroom":false,"has_seating":true,"hidden":48,"hidden_rank":30,"status":null}},{"type":"Feature","geometry":{"type":"Point","coordinates":[-122.40011,37.78895]},"properties":{"name":"55 Second St - B","address":"55 Second St","category":"Snippet","access":"business","entry":"Unknown","signage":"Good","hours":"8AM - 6PM, M-F","year":2002,"indoor":false,"has_art":false,"has_food":false,"has_restroom":false,"has_seating":true,"hidden":30,"hidden_rank":57,"status":null}},{"type":"Feature","geometry":{"type":"Point","coordinates":[-122.39259,37.79208]},"properties":{"name":"Rincon Center","address":"121 Spear St","category":"Indoor Park","access":"always","entry":"Indirect","signage":"Poor","hours":"Open at all times","year":1989,"indoor":true,"has_art":true,"has_food":true,"has_restroom":false,"has_seating":true,"hidden":82,"hidden_rank":6,"status":null}},{"type":"Feature","geometry":{"type":"Point","coordinates":[-122.39423,37.79219]},"properties":{"name":"123 Mission St","address":"123 Mission St","category":"Urban Garden","access":"always","entry":"Direct","signage":"Poor","hours":"Open at all times","year":1986,"indoor":false,"has_art":true,"has_food":true,"has_restroom":false,"has_seating":true,"hidden":30,"hidden_rank":41,"status":null}},{"type":"Feature","geometry":{"type":"Point","coordinates":[-122.3997369,37.79034281]},"properties":{"name":"525 Market St","address":"525 Market St","category":"Urban Garden","access":"always","entry":"Direct","signage":"Poor","hours":"Open at all times","year":1973,"indoor":false,"has_art":true,"has_food":true,"has_restroom":false,"has_seating":true,"hidden":30,"hidden_rank":56,"status":null}},{"type":"Feature","geometry":{"type":"Point","coordinates":[-122.39864,37.79361]},"properties":{"name":"150 California St","address":"150 California St","category":"Sun Terrace","access":"business","entry":"Indirect","signage":"Some","hours":"9AM-6PM, M-F","year":2000,"indoor":false,"has_art":true,"has_food":false,"has_restroom":false,"has_seating":true,"hidden":64,"hidden_rank":13,"status":null}},{"type":"Feature","geometry":{"type":"Point","coordinates":[-122.40487,37.79277]},"properties":{"name":"600 California St","address":"600 California St","category":"Snippet","access":"always","entry":"Direct","signage":"Some","hours":"Open at all times","year":1990,"indoor":false,"has_art":true,"has_food":true,"has_restroom":false,"has_seating":true,"hidden":12,"hidden_rank":78,"status":null}},{"type":"Feature","geometry":{"type":"Point","coordinates":[-122.40652,37.78473]},"properties":{"name":"Westfield Sky Terrace (Wesfield Center Mall)","address":"845 Market St","category":"Sun Terrace","access":"business","entry":"Indirect","signage":"Some","hours":"9AM-5PM M-F","year":2006,"indoor":false,"has_art":false,"has_food":true,"has_restroom":false,"has_seating":true,"hidden":64,"hidden_rank":20,"status":null}},{"type":"Feature","geometry":{"type":"Point","coordinates":[-122.39797,37.7891]},"properties":{"name":"100 1st St","address":"100 1st St","category":"Sun Terrace","access":"always","entry":"Indirect","signage":"Some","hours":"Ground level arcade space accessible at all times, Sun Terrace open during daylight hours.","year":1985,"indoor":false,"has_art":true,"has_food":false,"has_restroom":false,"has_seating":true,"hidden":46,"hidden_rank":33,"status":null}},{"type":"Feature","geometry":{"type":"Point","coordinates":[-122.39889,37.79347]},"properties":{"name":"200 California St","address":"200 California St","category":"Pedestrian Walkway","access":"always","entry":"Direct","signage":"Some","hours":"Open at all times","year":1990,"indoor":false,"has_art":true,"has_food":false,"has_restroom":false,"has_seating":true,"hidden":12,"hidden_rank":77,"status":null}},{"type":"Feature","geometry":{"type":"Point","coordinates":[-122.39938,37.78993]},"properties":{"name":"49 Stevenson St","address":"49 Stevenson St","category":"Pedestrian Walkway","access":"always","entry":"Direct","signage":"Poor","hours":"Open at all times","year":1984,"indoor":false,"has_art":true,"has_food":true,"has_restroom":false,"has_seating":true,"hidden":30,"hidden_rank":53,"status":null}},{"type":"Feature","geometry":{"type":"Point","coordinates":[-122.3957,37.78522]},"properties":{"name":"Marathon Plaza","address":"303 Second St","category":"Urban Garden","access":"always","entry":"Direct","signage":"Poor","hours":"Open at all times","year":1982,"indoor":false,"has_art":true,"has_food":true,"has_restroom":true,"has_seating":true,"hidden":30,"hidden_rank":71,"status":null}},{"type":"Feature","geometry":{"type":"Point","coordinates":[-122.39121179,37.79122985]},"properties":{"name":"Gap Building","address":"2 Folsom St","category":"Urban Garden","access":"always","entry":"Direct","signage":"Poor","hours":"Open at all times","year":2001,"indoor":false,"has_art":true,"has_food":false,"has_restroom":false,"has_seating":true,"hidden":30,"hidden_rank":69,"status":null}},{"type":"Feature","geometry":{"type":"Point","coordinates":[-122.39372,37.793]},"properties":{"name":"1 Market St","address":"1 Market St","category":"Atrium","access":"always","entry":"Indirect","signage":"Poor","hours":"Open at all times","year":1976,"indoor":true,"has_art":true,"has_food":true,"has_restroom":true,"has_seating":true,"hidden":82,"hidden_rank":3,"status":null}},{"type":"Feature","geometry":{"type":"Point","coordinates":[-122.39978307,37.78902357]},"properties":{"name":"71 Stevenson St","address":"71 Stevenson St","category":"Pedestrian Walkway","access":"always","entry":"Direct","signage":"Poor","hours":"Open at all times","year":1983,"indoor":false,"has_art":false,"has_food":true,"has_restroom":false,"has_seating":true,"hidden":30,"hidden_rank":62,"status":null}},{"type":"Feature","geometry":{"type":"Point","coordinates":[-122.39788898,37.79076641]},"properties":{"name":"14 Fremont St","address":"14 Fremont St","category":"Pedestrian Walkway","access":"always","entry":"Direct","signage":"Poor","hours":"Open at all times","year":1983,"indoor":false,"has_art":false,"has_food":true,"has_restroom":true,"has_seating":true,"hidden":30,"hidden_rank":42,"status":null}},{"type":"Feature","geometry":{"type":"Point","coordinates":[-122.40279735,37.79363998]},"properties":{"name":"456 Montomery St","address":"456 Montgomery St","category":"Plaza","access":"always","entry":"Indirect","signage":"Poor","hours":"Open at all times","year":1983,"indoor":false,"has_art":true,"has_food":false,"has_restroom":false,"has_seating":true,"hidden":64,"hidden_rank":16,"status":null}},{"type":"Feature","geometry":{"type":"Point","coordinates":[-122.40079791,37.79047982]},"properties":{"name":"Citygroup Center","address":"1 Sansome St","category":"Atrium","access":"business","entry":"Unknown","signage":"Poor","hours":null,"year":1983,"indoor":true,"has_art":null,"has_food":true,"has_restroom":true,"has_seating":true,"hidden":78,"hidden_rank":7,"status":null}},{"type":"Feature","geometry":{"type":"Point","coordinates":[-122.402717,37.790618]},"properties":{"name":"Trinity Alley","address":"333 Bush St","category":"Pedestrian Walkway","access":"always","entry":"Direct","signage":"Poor","hours":"Open at all times","year":1983,"indoor":false,"has_art":false,"has_food":true,"has_restroom":false,"has_seating":true,"hidden":30,"hidden_rank":74,"status":null}},{"type":"Feature","geometry":{"type":"Point","coordinates":[-122.39337112,37.79154685]},"properties":{"name":"Spear Street Plaza","address":"160 Spear St","category":"Urban Garden","access":"always","entry":"Direct","signage":"Poor","hours":"Open at all times","year":1983,"indoor":false,"has_art":true,"has_food":true,"has_restroom":false,"has_seating":true,"hidden":30,"hidden_rank":73,"status":null}},{"type":"Feature","geometry":{"type":"Point","coordinates":[-122.39879604,37.78961221]},"properties":{"name":"25 Jessie St","address":"25 Jessie St","category":"Pedestrian Walkway","access":"always","entry":"Indirect","signage":"Poor","hours":"Open at all times","year":1983,"indoor":false,"has_art":false,"has_food":false,"has_restroom":false,"has_seating":true,"hidden":64,"hidden_rank":14,"status":null}},{"type":"Feature","geometry":{"type":"Point","coordinates":[-122.39162755,37.79094499]},"properties":{"name":"201 Spear St","address":"201 Spear St","category":"Urban Garden","access":"always","entry":"Unknown","signage":"Poor","hours":"Open at all times","year":1982,"indoor":false,"has_art":null,"has_food":null,"has_restroom":null,"has_seating":false,"hidden":42,"hidden_rank":36,"status":null}},{"type":"Feature","geometry":{"type":"Point","coordinates":[-122.4028214,37.78927548]},"properties":{"name":"Crocker Galleria","address":"165 Sutter St","category":"Sun Terrace","access":"business","entry":"Indirect","signage":"Some","hours":"6AM-7PM, M-SAT","year":1982,"indoor":false,"has_art":false,"has_food":false,"has_restroom":true,"has_seating":true,"hidden":64,"hidden_rank":17,"status":null}},{"type":"Feature","geometry":{"type":"Point","coordinates":[-122.39426674,37.78968512]},"properties":{"name":"301 Howard St","address":"301 Howard St","category":"Urban Garden","access":"always","entry":"Unknown","signage":"Poor","hours":"Open at all times","year":1981,"indoor":false,"has_art":null,"has_food":null,"has_restroom":null,"has_seating":false,"hidden":42,"hidden_rank":37,"status":null}},{"type":"Feature","geometry":{"type":"Point","coordinates":[-122.39868154,37.79167436]},"properties":{"name":"444 Market  St","address":"444 Market St","category":"Plaza","access":"always","entry":"Direct","signage":"Poor","hours":"Open at all times","year":1980,"indoor":false,"has_art":true,"has_food":true,"has_restroom":false,"has_seating":true,"hidden":30,"hidden_rank":52,"status":null}},{"type":"Feature","geometry":{"type":"Point","coordinates":[-122.39221925,37.79073351]},"properties":{"name":"180 Howard St","address":"180 Howard St","category":"Pedestrian Walkway","access":"always","entry":"Direct","signage":"Poor","hours":"8AM - 6PM, M-F","year":1980,"indoor":false,"has_art":false,"has_food":true,"has_restroom":false,"has_seating":true,"hidden":30,"hidden_rank":43,"status":null}},{"type":"Feature","geometry":{"type":"Point","coordinates":[-122.40072729,37.78900186]},"properties":{"name":"595 Market St","address":"595 Market St","category":"Plaza","access":"always","entry":"Direct","signage":"Poor","hours":"Open at all times","year":1979,"indoor":false,"has_art":false,"has_food":true,"has_restroom":false,"has_seating":true,"hidden":30,"hidden_rank":60,"status":null}},{"type":"Feature","geometry":{"type":"Point","coordinates":[-122.39254577,37.79015362]},"properties":{"name":"221 Main St","address":"221 Main St","category":"Plaza","access":"always","entry":"Direct","signage":"Poor","hours":"Open at all times","year":1974,"indoor":false,"has_art":false,"has_food":false,"has_restroom":false,"has_seating":true,"hidden":30,"hidden_rank":46,"status":null}},{"type":"Feature","geometry":{"type":"Point","coordinates":[-122.40216798,37.79505236]},"properties":{"name":"Redwood Park","address":"535 Washington St","category":"Urban Park","access":"business","entry":"Direct","signage":"Poor","hours":"Not posted. Closes before 6pm","year":1972,"indoor":false,"has_art":true,"has_food":false,"has_restroom":false,"has_seating":true,"hidden":48,"hidden_rank":32,"status":null}},{"type":"Feature","geometry":{"type":"Point","coordinates":[-122.39753052,37.79380746]},"properties":{"name":"50 California St","address":"50 California St","category":"Snippet","access":"always","entry":"Direct","signage":"Poor","hours":"Open at all times","year":1970,"indoor":false,"has_art":true,"has_food":true,"has_restroom":false,"has_seating":true,"hidden":30,"hidden_rank":55,"status":null}},{"type":"Feature","geometry":{"type":"Point","coordinates":[-122.39915923,37.79273921]},"properties":{"name":"100 Pine St","address":"100 Pine St","category":"Urban Garden","access":"business","entry":"Unknown","signage":"Poor","hours":null,"year":1972,"indoor":false,"has_art":null,"has_food":true,"has_restroom":null,"has_seating":true,"hidden":60,"hidden_rank":21,"status":null}},{"type":"Feature","geometry":{"type":"Point","coordinates":[-122.39868143,37.78915139]},"properties":{"name":"Golden Gate University","address":"536 Mission St","category":"Snippet","access":"always","entry":"Direct","signage":"Poor","hours":"Open at all times","year":1972,"indoor":false,"has_art":false,"has_food":false,"has_restroom":true,"has_seating":true,"hidden":30,"hidden_rank":70,"status":null}},{"type":"Feature","geometry":{"type":"Point","coordinates":[-122.39728414,37.79335343]},"properties":{"name":"1 California St","address":"1 California St","category":"Snippet","access":"always","entry":"Direct","signage":"Poor","hours":"Open at all times","year":1970,"indoor":false,"has_art":false,"has_food":true,"has_restroom":false,"has_seating":true,"hidden":30,"hidden_rank":38,"status":null}},{"type":"Feature","geometry":{"type":"Point","coordinates":[-122.39622554,37.79173693]},"properties":{"name":"77 Beale St","address":"77 Beale St","category":"Plaza","access":"always","entry":"Direct","signage":"Poor","hours":"Open at all times","year":1970,"indoor":false,"has_art":false,"has_food":false,"has_restroom":false,"has_seating":true,"hidden":30,"hidden_rank":63,"status":null}},{"type":"Feature","geometry":{"type":"Point","coordinates":[-122.40395114,37.7924598]},"properties":{"name":"555 California St","address":"555 California St","category":"Urban Garden","access":"always","entry":"Direct","signage":"Poor","hours":"Open at all times","year":1969,"indoor":false,"has_art":false,"has_food":false,"has_restroom":false,"has_seating":true,"hidden":30,"hidden_rank":58,"status":null}},{"type":"Feature","geometry":{"type":"Point","coordinates":[-122.40264635,37.78862256]},"properties":{"name":"1 Post St","address":"1 Post St","category":"Snippet","access":"always","entry":"Unknown","signage":"Poor","hours":null,"year":1969,"indoor":false,"has_art":null,"has_food":null,"has_restroom":null,"has_seating":false,"hidden":42,"hidden_rank":35,"status":null}},{"type":"Feature","geometry":{"type":"Point","coordinates":[-122.39691639,37.79160342]},"properties":{"name":"50 Beale St","address":"50 Beale St","category":"Plaza","access":"always","entry":"Direct","signage":"Poor","hours":"Open at all times","year":1968,"indoor":false,"has_art":false,"has_food":false,"has_restroom":false,"has_seating":true,"hidden":30,"hidden_rank":54,"status":null}},{"type":"Feature","geometry":{"type":"Point","coordinates":[-122.4001579,37.78975722]},"properties":{"name":"555/557 Market St","address":"555/557 Market St","category":"Urban Garden","access":"always","entry":"Direct","signage":"Poor","hours":"Open at all times","year":1965,"indoor":false,"has_art":false,"has_food":false,"has_restroom":true,"has_seating":true,"hidden":30,"hidden_rank":59,"status":null}},{"type":"Feature","geometry":{"type":"Point","coordinates":[-122.40520017,37.79305037]},"properties":{"name":"650 California St","address":"650 California St","category":"Plaza","access":"always","entry":"Indirect","signage":"Some","hours":"Open at all times","year":1965,"indoor":false,"has_art":true,"has_food":false,"has_restroom":true,"has_seating":true,"hidden":46,"hidden_rank":34,"status":null}},{"type":"Feature","geometry":{"type":"Point","coordinates":[-122.39673063,37.78516765]},"properties":{"name":"611 Folsom St","address":"611 Folsom St","category":"Plaza","access":"always","entry":"Direct","signage":"Poor","hours":"Open at all times","year":1965,"indoor":false,"has_art":false,"has_food":false,"has_restroom":false,"has_seating":true,"hidden":30,"hidden_rank":61,"status":null}},{"type":"Feature","geometry":{"type":"Point","coordinates":[-122.39516089,37.79096222]},"properties":{"name":"201 Mission St","address":"201 Mission St","category":"Urban Garden","access":"always","entry":"Direct","signage":"Poor","hours":null,"year":1960,"indoor":false,"has_art":null,"has_food":null,"has_restroom":null,"has_seating":false,"hidden":30,"hidden_rank":44,"status":null}},{"type":"Feature","geometry":{"type":"Point","coordinates":[-122.40045257,37.79098054]},"properties":{"name":"1 Bush Street","address":"1 Bush Street","category":"Urban Garden","access":"always","entry":"Indirect","signage":"Poor","hours":"Open at all times","year":1959,"indoor":false,"has_art":true,"has_food":false,"has_restroom":false,"has_seating":true,"hidden":64,"hidden_rank":11,"status":null}},{"type":"Feature","geometry":{"type":"Point","coordinates":[-122.39823,37.78638]},"properties":{"name":"222 2nd St","address":"222 2nd St","category":"Greenhouse","access":"business","entry":"Direct","signage":"Some","hours":"8AM - 6PM, M-F","year":2016,"indoor":true,"has_art":true,"has_food":true,"has_restroom":true,"has_seating":true,"hidden":48,"hidden_rank":25,"status":null}},{"type":"Feature","geometry":{"type":"Point","coordinates":[-122.396685,37.791]},"properties":{"name":"350 Mission St","address":"350 Mission St","category":"Greenhouse","access":"business","entry":"Direct","signage":"Some","hours":"8AM-5PM, M-F","year":2011,"indoor":true,"has_art":false,"has_food":false,"has_restroom":false,"has_seating":true,"hidden":48,"hidden_rank":29,"status":null}},{"type":"Feature","geometry":{"type":"Point","coordinates":[-122.3961,37.7882]},"properties":{"name":"Foundry Square SW (indoor)","address":"505-525 Howard St (200 1st St)","category":"Indoor Park","access":"business","entry":"Direct","signage":"Some","hours":"8AM - 6PM, M-F","year":2008,"indoor":true,"has_art":false,"has_food":true,"has_restroom":true,"has_seating":true,"hidden":48,"hidden_rank":31,"status":null}},{"type":"Feature","geometry":{"type":"Point","coordinates":[-122.3961,37.7882]},"properties":{"name":"Foundry Square SW (outdoor)","address":"505-525 Howard St (200 1st St)","category":"Plaza","access":"business","entry":"Direct","signage":"Some","hours":"8AM - 6PM, M-F","year":2008,"indoor":false,"has_art":false,"has_food":true,"has_restroom":true,"has_seating":true,"hidden":30,"hidden_rank":68,"status":null}},{"type":"Feature","geometry":{"type":"Point","coordinates":[-122.398,37.793249]},"properties":{"name":"101 California St","address":"101 California Street","category":"Plaza","access":"always","entry":"Direct","signage":"Poor","hours":"Open at all times","year":1982,"indoor":false,"has_art":false,"has_food":true,"has_restroom":false,"has_seating":true,"hidden":30,"hidden_rank":40,"status":null}},{"type":"Feature","geometry":{"type":"Point","coordinates":[-122.407839,37.78219483]},"properties":{"name":"Hampton Inn","address":"942 Mission Street","category":"View Terrace","access":"business","entry":"Indirect","signage":"Some","hours":"10AM-5PM, M-F","year":2015,"indoor":false,"has_art":false,"has_food":false,"has_restroom":true,"has_seating":true,"hidden":64,"hidden_rank":19,"status":null}},{"type":"Feature","geometry":{"type":"Point","coordinates":[-122.395367,37.789785]},"properties":{"name":"181 Fremont","address":"181 Fremont","category":"Indoor Park","access":"business","entry":"Indirect","signage":"Good","hours":"8AM-6PM M-F","year":2015,"indoor":true,"has_art":true,"has_food":true,"has_restroom":true,"has_seating":true,"hidden":70,"hidden_rank":8,"status":null}},{"type":"Feature","geometry":{"type":"Point","coordinates":[-122.40337084,37.7911099]},"properties":{"name":"350 Bush St","address":"350 Bush St","category":"Indoor Park","access":"business","entry":"Direct","signage":"Some","hours":"7AM-6PM, M-F","year":2019,"indoor":true,"has_art":null,"has_food":false,"has_restroom":true,"has_seating":true,"hidden":48,"hidden_rank":26,"status":null}},{"type":"Feature","geometry":{"type":"Point","coordinates":[-122.40340574,37.79159219]},"properties":{"name":"350 Bush St","address":"350 Bush St","category":"Indoor Park","access":"business","entry":"Direct","signage":"Some","hours":"7AM-6PM, M-F","year":2019,"indoor":true,"has_art":null,"has_food":false,"has_restroom":true,"has_seating":true,"hidden":48,"hidden_rank":27,"status":null}},{"type":"Feature","geometry":{"type":"Point","coordinates":[-122.40454244,37.79183314]},"properties":{"name":"350 Bush St","address":"350 Bush St","category":"Indoor Park","access":"business","entry":"Direct","signage":"Some","hours":"7AM-6PM, M-F","year":2019,"indoor":true,"has_art":null,"has_food":false,"has_restroom":true,"has_seating":true,"hidden":48,"hidden_rank":28,"status":null}}]}